timestamp,speed,altitude,heading,yaw,roll,pitch
2026-03-30T22:43:51.536499,150.0,1000.0,0,0,65,0
2026-03-30T22:43:51.586499,150.4997916927068,1004.9916708323414,17,2,64,28
2026-03-30T22:43:51.636499,150.99833416646828,1019.8669330795061,34,4,60,56
2026-03-30T22:43:51.686499,151.494381324736,1044.328030999201,50,6,53,84
2026-03-30T22:43:51.736499,151.98669330795062,1077.8836684617302,66,9,43,111
2026-03-30T22:43:51.786499,152.47403959254524,1119.8563846510508,82,11,30,137
2026-03-30T22:43:51.836499,152.9552020666134,1169.3927420185107,97,13,14,161
2026-03-30T22:43:51.886499,153.42897807455452,1225.4761905331918,110,15,356,184
2026-03-30T22:43:51.936499,153.8941834230865,1286.942436359809,123,18,335,205
2026-03-30T22:43:51.986499,154.3496553411123,1352.4971093323675,134,20,311,224
2026-03-30T22:43:52.036499,154.79425538604204,1420.7354924039482,144,22,285,241
2026-03-30T22:43:52.086499,155.22687228930658,1490.1640480337894,153,25,256,255
2026-03-30T22:43:52.136499,155.64642473395037,1559.2234515803357,160,27,225,267
2026-03-30T22:43:52.186499,156.0518640573604,1626.3128205211756,165,29,192,276
2026-03-30T22:43:52.236499,156.4421768723769,1689.814810991922,169,31,156,282
2026-03-30T22:43:52.286499,156.81638760023333,1748.121239953041,171,33,118,285
2026-03-30T22:43:52.336499,157.17356090899523,1799.658882433204,171,36,78,286
2026-03-30T22:43:52.386499,157.51280405140292,1842.9150888845984,170,38,36,284
2026-03-30T22:43:52.436499,157.83326909627485,1876.4628677903756,167,40,352,278
2026-03-30T22:43:52.486499,158.13415504789373,1898.9850833030437,162,42,306,271
2026-03-30T22:43:52.536499,158.41470984807896,1909.2974268256817,156,44,259,260
2026-03-30T22:43:52.586499,158.67423225594018,1906.3698349813174,148,46,210,247
2026-03-30T22:43:52.636499,158.91207360061435,1889.3460442015491,138,48,159,231
2026-03-30T22:43:52.686499,159.1276394026052,1857.5609940032282,128,50,108,213
2026-03-30T22:43:52.736499,159.32039085967227,1810.5558166613807,116,52,55,193
2026-03-30T22:43:52.786499,159.48984619355588,1748.0901801299456,102,54,1,171
2026-03-30T22:43:52.836499,159.63558185417193,1670.1517833679034,88,56,306,147
2026-03-30T22:43:52.886499,159.75723357826658,1576.96283831567,73,58,250,122
2026-03-30T22:43:52.936499,159.8544972998846,1468.9834102182665,57,60,194,95
2026-03-30T22:43:52.986499,159.9271299103759,1346.9115273602738,41,62,138,68
2026-03-30T22:43:53.036499,159.97494986604053,1211.6800120898008,24,64,81,40
2026-03-30T22:43:53.086499,159.99783764189357,1064.4500267716003,7,66,23,11
2026-03-30T22:43:53.136499,159.99573603041506,906.6013705158718,349,68,326,343
2026-03-30T22:43:53.186499,159.9686502845392,739.7196046636398,332,70,269,314
2026-03-30T22:43:53.236499,159.91664810452468,565.5801265543862,316,72,212,286
2026-03-30T22:43:53.286499,159.83985946873938,386.1293515431653,299,73,155,259
2026-03-30T22:43:53.336499,159.73847630878194,203.46320206926555,283,75,99,233
2026-03-30T22:43:53.386499,159.612752029753,19.803139319287197,268,77,44,208
2026-03-30T22:43:53.436499,159.46300087687413,0.0,254,78,349,184
2026-03-30T22:43:53.486499,159.2895971500387,0.0,241,80,295,162
2026-03-30T22:43:53.536499,159.09297426825682,0.0,229,82,243,143
2026-03-30T22:43:53.586499,158.87362368633376,0.0,219,83,191,125
2026-03-30T22:43:53.636499,158.63209366648874,0.0,210,85,141,110
2026-03-30T22:43:53.686499,158.36898790798497,0.0,202,86,92,97
2026-03-30T22:43:53.736499,158.0849640381959,0.0,196,88,45,87
2026-03-30T22:43:53.786499,157.78073196887922,0.0,191,89,0,79
2026-03-30T22:43:53.836499,157.4570521217672,0.0,189,91,316,75
2026-03-30T22:43:53.886499,157.11473352790844,0.0,188,92,274,73
2026-03-30T22:43:53.936499,156.7546318055115,0.0,188,93,235,74
2026-03-30T22:43:53.986499,156.37764702134504,0.0,191,95,197,78
2026-03-30T22:43:54.036499,155.98472144103957,0.0,195,96,161,85
2026-03-30T22:43:54.086499,155.57683717391416,0.0,200,97,128,94
2026-03-30T22:43:54.136499,155.15501371821463,0.0,208,98,98,106
2026-03-30T22:43:54.186499,154.72030541289882,0.0,216,99,69,121
2026-03-30T22:43:54.236499,154.2737988023383,0.0,227,101,44,138
2026-03-30T22:43:54.286499,153.81660992052332,0.0,238,102,20,157
2026-03-30T22:43:54.336499,153.34988150155905,0.0,251,103,0,179
2026-03-30T22:43:54.386499,152.87478012342544,0.0,265,104,342,202
2026-03-30T22:43:54.436499,152.39249329213982,0.0,280,105,327,226
2026-03-30T22:43:54.486499,151.90422647361027,0.0,295,105,315,252
2026-03-30T22:43:54.536499,151.41120008059866,161.75350540322245,311,106,305,279
2026-03-30T22:43:54.586499,150.91464642232438,444.40436197011024,328,107,298,307
2026-03-30T22:43:54.636499,150.4158066243329,742.4228512657612,345,108,295,336
2026-03-30T22:43:54.686499,149.91592752632852,1052.9637865257043,2,109,294,4
2026-03-30T22:43:54.736499,149.4162585657242,1372.9574555215795,20,109,296,33
2026-03-30T22:43:54.786499,148.9180486546989,1699.1399612854004,36,110,300,61
2026-03-30T22:43:54.836499,148.42254305856753,2000.0,53,111,308,89
2026-03-30T22:43:54.886499,147.930980283266,2000.0,69,111,318,115
2026-03-30T22:43:54.936499,147.4445889797317,2000.0,84,112,332,141
2026-03-30T22:43:54.986499,146.9645848729157,2000.0,99,112,348,165
2026-03-30T22:43:55.036499,146.4921677231038,2000.0,112,112,6,188
2026-03-30T22:43:55.086499,146.0285183271404,2000.0,125,113,28,208
2026-03-30T22:43:55.136499,145.57479556705147,2000.0,136,113,52,227
2026-03-30T22:43:55.186499,145.132133513443,2000.0,146,113,79,243
2026-03-30T22:43:55.236499,144.70163859091505,2000.0,154,114,108,257
2026-03-30T22:43:55.286499,144.28438681257657,2000.0,161,114,139,268
2026-03-30T22:43:55.336499,143.88142109057281,2000.0,166,114,173,277
2026-03-30T22:43:55.386499,143.49374862934832,2000.0,169,114,209,283
2026-03-30T22:43:55.436499,143.12233840816026,2000.0,171,114,248,286
2026-03-30T22:43:55.486499,142.7681187591349,2000.0,171,114,288,286
2026-03-30T22:43:55.536499,142.4319750469207,2000.0,170,114,330,283
2026-03-30T22:43:55.586499,142.11474745573804,2000.0,166,114,15,277
2026-03-30T22:43:55.636499,141.8172288893559,2000.0,161,114,61,269
2026-03-30T22:43:55.686499,141.54016298924554,2000.0,155,114,108,258
2026-03-30T22:43:55.736499,141.28424227586413,2000.0,146,113,158,244
2026-03-30T22:43:55.786499,141.05010641771418,2000.0,137,113,208,228
2026-03-30T22:43:55.836499,140.83834063250546,2000.0,126,113,260,210
2026-03-30T22:43:55.886499,140.6494742244155,2000.0,113,112,313,189
2026-03-30T22:43:55.936499,140.48397926110485,2000.0,100,112,7,167
2026-03-30T22:43:55.986499,140.3422693937936,2000.0,86,112,62,143
2026-03-30T22:43:56.036499,140.22469882334903,2000.0,70,111,118,118
2026-03-30T22:43:56.086499,140.13156141496762,2000.0,54,111,174,91
2026-03-30T22:43:56.136499,140.06308996366536,2000.0,38,110,231,63
2026-03-30T22:43:56.186499,140.0194556124112,1578.713069307837,21,109,288,35
2026-03-30T22:43:56.236499,140.000767424359,1116.4444996307816,4,109,345,7
2026-03-30T22:43:56.286499,140.0070721102462,643.0321778064058,347,108,43,338
2026-03-30T22:43:56.336499,140.0383539116416,163.23145012968928,330,107,100,310
2026-03-30T22:43:56.386499,140.09453464033288,0.0,313,106,157,282
2026-03-30T22:43:56.436499,140.1754738737567,0.0,297,106,213,255
2026-03-30T22:43:56.486499,140.28096930598178,0.0,281,105,269,228
2026-03-30T22:43:56.536499,140.41075725336862,0.0,266,104,325,204
2026-03-30T22:43:56.586499,140.56451331364093,0.0,252,103,19,180
2026-03-30T22:43:56.636499,140.74185317672269,0.0,239,102,73,159
2026-03-30T22:43:56.686499,140.94233358531295,0.0,228,101,125,140
2026-03-30T22:43:56.736499,141.16545344279848,0.0,217,100,176,122
2026-03-30T22:43:56.786499,141.4106550657341,0.0,208,98,226,107
2026-03-30T22:43:56.836499,141.677325577761,0.0,201,97,275,95
2026-03-30T22:43:56.886499,141.96479844147845,0.0,195,96,322,85
2026-03-30T22:43:56.936499,142.27235512444014,0.0,191,95,7,78
2026-03-30T22:43:56.986499,142.59922689511106,0.0,188,93,50,74
2026-03-30T22:43:57.036499,142.9445967442961,0.0,188,92,92,73
2026-03-30T22:43:57.086499,143.3076014272374,0.0,189,91,131,75
2026-03-30T22:43:57.136499,143.6873336212768,0.0,191,89,168,79
2026-03-30T22:43:57.186499,144.0828441936899,0.0,196,88,203,86
2026-03-30T22:43:57.236499,144.49314457402363,0.0,201,86,236,96
2026-03-30T22:43:57.286499,144.9172092250074,0.0,209,85,266,109
2026-03-30T22:43:57.336499,145.35397820586243,0.0,218,83,294,124
2026-03-30T22:43:57.386499,145.8023598216014,0.0,229,82,320,141
2026-03-30T22:43:57.436499,146.26123335169763,0.0,240,80,342,161
2026-03-30T22:43:57.486499,146.7294518513026,0.0,253,79,2,182
2026-03-30T22:43:57.536499,147.20584501801073,0.0,267,77,20,206
2026-03-30T22:43:57.586499,147.6892221170061,0.0,282,75,34,231
2026-03-30T22:43:57.636499,148.17837495727906,0.0,298,73,46,257
2026-03-30T22:43:57.686499,148.67208091147484,0.0,314,72,55,284
2026-03-30T22:43:57.736499,149.16910597182505,0.0,331,70,61,312
2026-03-30T22:43:57.786499,149.66820783452442,585.4881415549958,348,68,65,341
2026-03-30T22:43:57.836499,150.1681390048435,1211.8251974931723,5,66,65,9
2026-03-30T22:43:57.886499,150.66764991521558,1846.0234630166442,22,64,63,38
2026-03-30T22:43:57.936499,151.16549204850494,2000.0,39,62,58,66
2026-03-30T22:43:57.986499,151.66042105864958,2000.0,56,61,50,93
2026-03-30T22:43:58.036499,152.15119988087815,2000.0,72,59,39,120
2026-03-30T22:43:58.086499,152.6366018237278,2000.0,87,57,25,145
2026-03-30T22:43:58.136499,153.1154136351338,2000.0,101,55,8,169
2026-03-30T22:43:58.186499,153.586438534928,2000.0,115,53,349,191
2026-03-30T22:43:58.236499,154.04849920616599,2000.0,127,51,327,212
2026-03-30T22:43:58.286499,154.50044073780617,2000.0,138,48,303,230
2026-03-30T22:43:58.336499,154.94113351138608,2000.0,147,46,276,246
2026-03-30T22:43:58.386499,155.36947602448012,2000.0,155,44,246,259
2026-03-30T22:43:58.436499,155.784397643882,2000.0,162,42,214,270
2026-03-30T22:43:58.486499,156.18486128163025,2000.0,167,40,180,278
2026-03-30T22:43:58.536499,156.56986598718788,2000.0,170,38,143,283
2026-03-30T22:43:58.586499,156.93844944929765,2000.0,171,36,105,286
2026-03-30T22:43:58.636499,157.28969040125875,2000.0,171,34,64,285
2026-03-30T22:43:58.686499,157.6227109236141,2000.0,169,31,21,282
2026-03-30T22:43:58.736499,157.93667863849154,2000.0,165,29,337,276
2026-03-30T22:43:58.786499,158.23080879011505,2000.0,160,27,290,267
2026-03-30T22:43:58.836499,158.50436620628565,2000.0,153,25,242,256
2026-03-30T22:43:58.886499,158.75666713592884,2000.0,145,22,193,242
2026-03-30T22:43:58.936499,158.98708095811628,2000.0,135,20,142,225
2026-03-30T22:43:58.986499,159.1950317582897,2000.0,124,18,90,207
2026-03-30T22:43:59.036499,159.3799997677474,2000.0,111,16,37,186
2026-03-30T22:43:59.086499,159.54152266279516,2000.0,98,13,342,163
2026-03-30T22:43:59.136499,159.67919672031488,2000.0,83,11,287,139
2026-03-30T22:43:59.186499,159.792677826862,2000.0,68,9,232,113
2026-03-30T22:43:59.236499,159.88168233877,2000.0,52,7,175,86
2026-03-30T22:43:59.286499,159.94598779111175,2000.0,35,4,118,59
2026-03-30T22:43:59.336499,159.98543345374605,1840.4784879356498,18,2,61,30
2026-03-30T22:43:59.386499,159.99992073305918,1062.5109927195942,1,0,4,2
2026-03-30T22:43:59.436499,159.98941341839773,273.93588320131505,344,357,307,333
2026-03-30T22:43:59.486499,159.9539377725762,0.0,327,355,250,305
2026-03-30T22:43:59.536499,159.89358246623382,0.0,310,353,193,277
2026-03-30T22:43:59.586499,159.80849835620398,0.0,294,351,136,250
2026-03-30T22:43:59.636499,159.69889810845086,0.0,278,348,80,224
2026-03-30T22:43:59.686499,159.5650556665151,0.0,264,346,25,200
2026-03-30T22:43:59.736499,159.40730556679773,0.0,250,344,331,177
2026-03-30T22:43:59.786499,159.2260421023934,0.0,237,341,277,156
2026-03-30T22:43:59.836499,159.02171833756293,0.0,226,339,225,137
2026-03-30T22:43:59.886499,158.79484497530865,0.0,216,337,174,120
2026-03-30T22:43:59.936499,158.5459890808828,0.0,207,335,124,105
2026-03-30T22:43:59.986499,158.27577266441983,0.0,200,332,76,93
2026-03-30T22:44:00.036499,157.9848711262349,0.0,194,330,30,84
2026-03-30T22:44:00.086499,157.67401156867487,0.0,190,328,345,78
2026-03-30T22:44:00.136499,157.34397097874114,0.0,188,326,302,74
2026-03-30T22:44:00.186499,156.99557428602668,0.0,188,324,261,73
2026-03-30T22:44:00.236499,156.62969230082183,0.0,189,321,222,75
2026-03-30T22:44:00.286499,156.24723953754193,0.0,192,319,185,80
2026-03-30T22:44:00.336499,155.84917192891763,0.0,196,317,150,88
2026-03-30T22:44:00.386499,155.4364844366609,0.0,203,315,118,98
2026-03-30T22:44:00.436499,155.01020856457885,0.0,210,313,88,111
2026-03-30T22:44:00.486499,154.57140978035153,0.0,220,311,60,127
2026-03-30T22:44:00.536499,154.12118485241757,0.0,230,309,35,144
2026-03-30T22:44:00.586499,153.66065910862412,0.0,242,307,13,164
2026-03-30T22:44:00.636499,153.1909836234935,0.0,256,305,353,186
2026-03-30T22:44:00.686499,152.71333234113632,0.0,270,303,337,210
2026-03-30T22:44:00.736499,152.22889914100247,0.0,285,301,322,235
2026-03-30T22:44:00.786499,151.73889485380434,0.0,301,299,311,261
2026-03-30T22:44:00.836499,151.2445442350706,0.0,317,297,302,289
2026-03-30T22:44:00.886499,150.74708290389535,0.0,334,295,297,317
2026-03-30T22:44:00.936499,150.2477542545336,534.3649757433462,351,293,294,345
2026-03-30T22:44:00.986499,149.7478063485634,1476.4943997743994,8,291,294,14
2026-03-30T22:44:01.036499,149.24848879538192,2000.0,25,289,297,42
2026-03-30T22:44:01.086499,148.75104962883248,2000.0,42,288,303,70
2026-03-30T22:44:01.136499,148.25673218777018,2000.0,59,286,311,98
2026-03-30T22:44:01.186499,147.76677200836215,2000.0,74,284,323,124
2026-03-30T22:44:01.236499,147.28239373589057,2000.0,89,282,337,149
2026-03-30T22:44:01.286499,146.80480806377727,2000.0,104,281,354,173
2026-03-30T22:44:01.336499,146.33520870748072,2000.0,117,279,13,195
2026-03-30T22:44:01.386499,145.87476942082907,2000.0,129,277,36,215
2026-03-30T22:44:01.436499,145.4246410622468,2000.0,139,276,61,233
2026-03-30T22:44:01.486499,144.98594871820802,2000.0,149,274,88,248
2026-03-30T22:44:01.536499,144.5597888911063,2000.0,156,273,118,261
2026-03-30T22:44:01.586499,144.14722675856964,2000.0,163,271,150,271
2026-03-30T22:44:01.636499,143.74929351107116,2000.0,167,270,185,279
2026-03-30T22:44:01.686499,143.36698377449002,2000.0,170,268,222,284
2026-03-30T22:44:01.736499,143.00125312406456,2000.0,171,267,261,286
2026-03-30T22:44:01.786499,142.65301569595204,2000.0,171,266,302,285
2026-03-30T22:44:01.836499,142.32314190236417,2000.0,169,264,345,281
2026-03-30T22:44:01.886499,142.01245625598997,2000.0,165,263,30,275
2026-03-30T22:44:01.936499,141.72173530914347,2000.0,159,262,77,266
2026-03-30T22:44:01.986499,141.45170571278717,2000.0,152,261,125,254
2026-03-30T22:44:02.036499,141.2030424002833,2000.0,143,260,175,239
2026-03-30T22:44:02.086499,140.97636690041176,2000.0,133,259,226,222
2026-03-30T22:44:02.136499,140.77224578387194,2000.0,122,257,278,203
2026-03-30T22:44:02.186499,140.5911892471509,2000.0,109,256,331,182
2026-03-30T22:44:02.236499,140.4336498372981,2000.0,95,255,26,159
2026-03-30T22:44:02.286499,140.3000213207932,2000.0,81,255,81,135
2026-03-30T22:44:02.336499,140.19063769933507,2000.0,65,254,137,109
2026-03-30T22:44:02.386499,140.1057723750115,2000.0,49,253,193,82
2026-03-30T22:44:02.436499,140.04563746693623,2000.0,32,252,250,54
2026-03-30T22:44:02.486499,140.01038328106182,1996.6954573882954,15,251,307,26
2026-03-30T22:44:02.536499,140.00009793449297,902.6355978055574,358,250,5,357
2026-03-30T22:44:02.586499,140.01480713523955,0.0,341,250,62,328
2026-03-30T22:44:02.636499,140.0544741179601,0.0,324,249,119,300
2026-03-30T22:44:02.686499,140.11899973585602,0.0,307,249,176,272
2026-03-30T22:44:02.736499,140.20822270848683,0.0,291,248,232,246
2026-03-30T22:44:02.786499,140.3219200248874,0.0,276,247,288,220
2026-03-30T22:44:02.836499,140.4598075009791,0.0,261,247,343,196
2026-03-30T22:44:02.886499,140.6215404898822,0.0,248,247,37,173
2026-03-30T22:44:02.936499,140.80671474335324,0.0,235,246,90,152
2026-03-30T22:44:02.986499,141.01486742219552,0.0,224,246,142,134
2026-03-30T22:44:03.036499,141.24547825311572,0.0,214,246,193,117
2026-03-30T22:44:03.086499,141.49797082913634,0.0,206,245,243,103
2026-03-30T22:44:03.136499,141.7717140503129,0.0,199,245,291,92
2026-03-30T22:44:03.186499,142.06602370115522,0.0,193,245,337,83
2026-03-30T22:44:03.236499,142.38016416080967,0.0,190,245,22,77
2026-03-30T22:44:03.286499,142.7133502417283,0.0,188,245,64,74
2026-03-30T22:44:03.336499,143.06474915222879,0.0,188,245,105,73
2026-03-30T22:44:03.386499,143.43348257803987,0.0,189,245,144,76
2026-03-30T22:44:03.436499,143.81862887762966,0.0,192,245,180,81
2026-03-30T22:44:03.486499,144.21922538582956,0.0,197,245,215,89
2026-03-30T22:44:03.536499,144.63427081999566,0.0,204,245,246,100
2026-03-30T22:44:03.586499,145.06272778269403,0.0,212,246,276,113
2026-03-30T22:44:03.636499,145.503525354654,0.0,221,246,303,129
2026-03-30T22:44:03.686499,145.9555617715086,0.0,232,246,328,148
2026-03-30T22:44:03.736499,146.41770717763174,0.0,245,247,349,168
2026-03-30T22:44:03.786499,146.88880645018872,0.0,258,247,9,190
2026-03-30T22:44:03.836499,147.367682086342,0.0,272,247,25,214
2026-03-30T22:44:03.886499,147.85313714639474,0.0,287,248,39,239
2026-03-30T22:44:03.936499,148.34395824551692,0.0,303,248,50,266
2026-03-30T22:44:03.986499,148.83891858657543,0.0,320,249,58,293
2026-03-30T22:44:04.036499,149.33678102648798,0.0,337,250,63,322
2026-03-30T22:44:04.086499,149.8363011684366,589.1709893978913,354,250,65,350
2026-03-30T22:44:04.136499,150.33623047221138,1846.8217138210289,11,251,65,19
2026-03-30T22:44:04.186499,150.83531937491108,2000.0,28,252,61,47
2026-03-30T22:44:04.236499,151.33232041419944,2000.0,45,253,55,75
2026-03-30T22:44:04.286499,151.82599134631133,2000.0,61,253,46,102
2026-03-30T22:44:04.336499,152.3150982510154,2000.0,77,254,34,129
2026-03-30T22:44:04.386499,152.79841861577177,2000.0,92,255,20,153
2026-03-30T22:44:04.436499,153.27474439137694,2000.0,106,256,2,177
2026-03-30T22:44:04.486499,153.7428850114576,2000.0,119,257,342,198
2026-03-30T22:44:04.536499,154.2016703682664,2000.0,131,258,319,218
2026-03-30T22:44:04.586499,154.6499537373422,2000.0,141,259,294,235
2026-03-30T22:44:04.636499,155.08661464372375,2000.0,150,260,266,250
2026-03-30T22:44:04.686499,155.51056166255367,2000.0,158,262,236,263
2026-03-30T22:44:04.736499,155.92073514707224,2000.0,164,263,203,273
2026-03-30T22:44:04.786499,156.31610987718238,2000.0,168,264,168,280
2026-03-30T22:44:04.836499,156.69569762196602,2000.0,170,265,131,284
2026-03-30T22:44:04.886499,157.05854960974665,2000.0,171,267,91,286
2026-03-30T22:44:04.936499,157.4037588995245,2000.0,171,268,50,285
2026-03-30T22:44:04.986499,157.73046264785663,2000.0,168,270,6,280
2026-03-30T22:44:05.036499,158.0378442655162,2000.0,164,271,321,273
2026-03-30T22:44:05.086499,158.3251354585404,2000.0,158,272,274,264
2026-03-30T22:44:05.136499,158.59161814856498,2000.0,151,274,226,251
2026-03-30T22:44:05.186499,158.83662626764635,2000.0,142,275,176,237
2026-03-30T22:44:05.236499,159.05954742308464,2000.0,131,277,125,219
2026-03-30T22:44:05.286499,159.25982442808626,2000.0,120,279,72,200
2026-03-30T22:44:05.336499,159.43695669444105,2000.0,107,280,19,178
2026-03-30T22:44:05.386499,159.59050148373177,2000.0,93,282,324,155
2026-03-30T22:44:05.436499,159.72007501394975,2000.0,78,284,269,130
2026-03-30T22:44:05.486499,159.8253534187501,2000.0,62,285,213,104
2026-03-30T22:44:05.536499,159.9060735569487,2000.0,46,287,156,77
2026-03-30T22:44:05.586499,159.96203367023833,2000.0,29,289,99,49
2026-03-30T22:44:05.636499,159.99309388747918,2000.0,12,291,42,21
2026-03-30T22:44:05.686499,159.99917657430404,636.8643069730832,355,293,345,352
2026-03-30T22:44:05.736499,159.98026652716362,0.0,338,294,288,324
2026-03-30T22:44:05.786499,159.93641101132764,0.0,321,296,230,295
2026-03-30T22:44:05.836499,159.86771964274612,0.0,305,298,174,268
2026-03-30T22:44:05.886499,159.77436411406683,0.0,289,300,117,241
2026-03-30T22:44:05.936499,159.65657776549278,0.0,273,302,62,216
2026-03-30T22:44:05.986499,159.51465500155348,0.0,259,304,7,192
2026-03-30T22:44:06.036499,159.34895055524683,0.0,245,306,313,169
2026-03-30T22:44:06.086499,159.1598786013914,0.0,233,308,260,149
2026-03-30T22:44:06.136499,158.94791172140503,0.0,222,310,208,131
2026-03-30T22:44:06.186499,158.7135797220975,0.0,213,312,157,115
2026-03-30T22:44:06.236499,158.45746831142932,0.0,204,315,108,101
2026-03-30T22:44:06.286499,158.18021763454695,0.0,198,317,60,90
2026-03-30T22:44:06.336499,157.88252067375316,0.0,193,319,14,82
2026-03-30T22:44:06.386499,157.5651215164124,0.0,189,321,330,76
2026-03-30T22:44:06.436499,157.22881349511977,0.0,188,323,288,73
2026-03-30T22:44:06.486499,156.8744372047826,0.0,188,325,247,73
2026-03-30T22:44:06.536499,156.50287840157117,0.0,190,327,209,76
2026-03-30T22:44:06.586499,156.1150657889894,0.0,193,330,173,82
2026-03-30T22:44:06.636499,155.71196869659988,0.0,198,332,139,91
2026-03-30T22:44:06.686499,155.29459465720464,0.0,205,334,107,102
2026-03-30T22:44:06.736499,154.863986888538,0.0,213,336,78,116
2026-03-30T22:44:06.786499,154.4212216857654,0.0,223,339,52,132
2026-03-30T22:44:06.836499,153.96740573130612,0.0,234,341,28,151
2026-03-30T22:44:06.886499,153.50367332870354,0.0,247,343,6,171
2026-03-30T22:44:06.936499,153.03118356745702,0.0,260,345,347,194
2026-03-30T22:44:06.986499,152.55111742590174,0.0,275,348,332,218
2026-03-30T22:44:07.036499,152.06467481937796,0.0,290,350,318,244
2026-03-30T22:44:07.086499,151.5730716010676,0.0,306,352,308,270
2026-03-30T22:44:07.136499,151.07753652299442,0.0,323,355,300,298
2026-03-30T22:44:07.186499,150.57930816478395,0.0,340,357,296,326
2026-03-30T22:44:07.236499,150.07963183785935,749.9639571784576,357,359,294,355
2026-03-30T22:44:07.286499,149.5797564728116,2000.0,14,1,295,24
2026-03-30T22:44:07.336499,149.08093149772318,2000.0,31,4,298,52
2026-03-30T22:44:07.386499,148.58440371524884,2000.0,48,6,305,80
2026-03-30T22:44:07.436499,148.0914141862581,2000.0,64,8,315,107
2026-03-30T22:44:07.486499,147.60319512782942,2000.0,79,11,327,133
2026-03-30T22:44:07.536499,147.12096683334934,2000.0,94,13,342,157
2026-03-30T22:44:07.586499,146.6459346224144,2000.0,108,15,0,181
2026-03-30T22:44:07.636499,146.17928582815992,2000.0,121,17,21,202
2026-03-30T22:44:07.686499,145.72218682954556,2000.0,132,20,44,221
2026-03-30T22:44:07.736499,145.27578013601533,2000.0,143,22,70,238
2026-03-30T22:44:07.786499,144.8411815318189,2000.0,151,24,98,253
2026-03-30T22:44:07.836499,144.4194772871322,2000.0,159,26,129,265
2026-03-30T22:44:07.886499,144.01172144294762,2000.0,164,29,162,274
2026-03-30T22:44:07.936499,143.6189331765205,2000.0,168,31,197,281
2026-03-30T22:44:07.986499,143.24209425395674,2000.0,171,33,235,285
2026-03-30T22:44:08.036499,142.88214657630877,2000.0,171,35,275,286
2026-03-30T22:44:08.086499,142.53998982531363,2000.0,170,37,316,284
2026-03-30T22:44:08.136499,142.21647921465703,2000.0,167,40,0,279
2026-03-30T22:44:08.186499,141.91242335238448,2000.0,163,42,46,272
2026-03-30T22:44:08.236499,141.62858221980252,2000.0,157,44,93,262
2026-03-30T22:44:08.286499,141.36566527192093,2000.0,149,46,141,249
2026-03-30T22:44:08.336499,141.12432966418496,2000.0,140,48,192,234
2026-03-30T22:44:08.386499,140.90517860992875,2000.0,129,50,243,216
2026-03-30T22:44:08.436499,140.70875987265632,2000.0,118,52,296,196
2026-03-30T22:44:08.486499,140.53556439691792,2000.0,105,54,350,175
2026-03-30T22:44:08.536499,140.38602508120442,2000.0,90,56,44,151
2026-03-30T22:44:08.586499,140.26051569592659,2000.0,75,58,100,126
2026-03-30T22:44:08.636499,140.15934994918356,2000.0,60,60,156,100
2026-03-30T22:44:08.686499,140.0827807026561,2000.0,43,62,212,72
2026-03-30T22:44:08.736499,140.03099933958404,2000.0,26,64,269,44
2026-03-30T22:44:08.786499,140.00413528640783,1991.6589973099487,9,66,327,16
2026-03-30T22:44:08.836499,140.0022556892699,265.30299939673864,352,68,24,347
2026-03-30T22:44:08.886499,140.02536524618418,0.0,335,69,81,319
2026-03-30T22:44:08.936499,140.07340619529367,0.0,318,71,138,291
2026-03-30T22:44:08.986499,140.1462584592448,0.0,302,73,195,263
2026-03-30T22:44:09.036499,140.24373994531842,0.0,286,75,251,237
2026-03-30T22:44:09.086499,140.36560700056674,0.0,271,76,307,212
2026-03-30T22:44:09.136499,140.51155502081875,0.0,257,78,1,188
2026-03-30T22:44:09.186499,140.68121921203212,0.0,243,80,55,166
2026-03-30T22:44:09.236499,140.87417550208815,0.0,231,81,108,146
2026-03-30T22:44:09.286499,141.08994160075147,0.0,220,83,160,128
2026-03-30T22:44:09.336499,141.32797820514418,0.0,211,85,210,112
2026-03-30T22:44:09.386499,141.5876903477224,0.0,203,86,259,99
2026-03-30T22:44:09.436499,141.86842888338515,0.0,197,88,306,88
2026-03-30T22:44:09.486499,142.169492111999,0.0,192,89,352,80
2026-03-30T22:44:09.536499,142.49012753228322,0.0,189,90,36,75
2026-03-30T22:44:09.586499,142.8295337226708,0.0,188,92,78,73
2026-03-30T22:44:09.636499,143.186862344445,0.0,188,93,118,74
2026-03-30T22:44:09.686499,143.56122026214462,0.0,190,94,156,77
2026-03-30T22:44:09.736499,143.95167177593717,0.0,194,96,192,84
2026-03-30T22:44:09.786499,144.35724096038146,0.0,199,97,226,93
2026-03-30T22:44:09.836499,144.77691410373268,0.0,206,98,257,104
2026-03-30T22:44:09.886499,145.20964224169404,0.0,215,99,285,119
2026-03-30T22:44:09.936499,145.65434377928108,0.0,225,100,312,135
2026-03-30T22:44:09.986499,146.10990719424584,0.0,236,101,335,154
2026-03-30T22:44:10.036499,146.57519381530386,0.0,249,102,356,175
2026-03-30T22:44:10.086499,147.04904066821905,0.0,263,103,14,198
2026-03-30T22:44:10.136499,147.5302633826338,0.0,277,104,30,222
2026-03-30T22:44:10.186499,148.01765915237797,0.0,293,105,43,248
2026-03-30T22:44:10.236499,148.510009741858,0.0,309,106,53,275
2026-03-30T22:44:10.286499,149.0060845310115,0.0,326,107,60,303
2026-03-30T22:44:10.336499,149.50464359121634,0.0,342,108,64,331
2026-03-30T22:44:10.386499,150.00444078446645,1016.7417557877766,0,108,65,0
2026-03-30T22:44:10.436499,150.50422687806815,2000.0,17,109,64,28
2026-03-30T22:44:10.486499,151.00275266707092,2000.0,34,110,60,57
2026-03-30T22:44:10.536499,151.49877209662952,2000.0,50,110,52,84
2026-03-30T22:44:10.586499,151.99104537649197,2000.0,67,111,42,111
2026-03-30T22:44:10.636499,152.4783420798296,2000.0,82,111,30,137
2026-03-30T22:44:10.686499,152.95944421866324,2000.0,97,112,14,161
2026-03-30T22:44:10.736499,153.433149288199,2000.0,110,112,356,184
2026-03-30T22:44:10.786499,153.8982732724638,2000.0,123,113,335,205
2026-03-30T22:44:10.836499,154.35365360372893,2000.0,134,113,311,224
2026-03-30T22:44:10.886499,154.79815206832373,2000.0,144,113,285,241
2026-03-30T22:44:10.936499,155.230657651577,2000.0,153,114,256,255
2026-03-30T22:44:10.986499,155.65008931477516,2000.0,160,114,225,267
2026-03-30T22:44:11.036499,156.055398697196,2000.0,165,114,191,276
2026-03-30T22:44:11.086499,156.44557273646456,2000.0,169,114,156,282
2026-03-30T22:44:11.136499,156.81963620068134,2000.0,171,114,118,285
2026-03-30T22:44:11.186499,157.1766541259943,2000.0,171,114,78,286
2026-03-30T22:44:11.236499,157.5157341535215,2000.0,170,114,35,284
2026-03-30T22:44:11.286499,157.83602875978355,2000.0,167,114,351,278
2026-03-30T22:44:11.336499,158.13673737507105,2000.0,162,114,306,271
2026-03-30T22:44:11.386499,158.41710838445178,2000.0,156,114,258,260
2026-03-30T22:44:11.436499,158.6764410064167,2000.0,148,113,209,247
2026-03-30T22:44:11.486499,158.9140870444687,2000.0,138,113,159,231
2026-03-30T22:44:11.536499,159.12945250727628,2000.0,128,113,107,213
2026-03-30T22:44:11.586499,159.32199909334264,2000.0,115,113,54,193
2026-03-30T22:44:11.636499,159.49124553647894,2000.0,102,112,0,171
2026-03-30T22:44:11.686499,159.63676880871915,2000.0,88,112,306,147
2026-03-30T22:44:11.736499,159.75820517766977,2000.0,73,111,250,122
2026-03-30T22:44:11.786499,159.85525111565119,2000.0,57,111,194,95
2026-03-30T22:44:11.836499,159.92766405835908,2000.0,40,110,137,68
2026-03-30T22:44:11.886499,159.97526301114854,2000.0,24,109,80,40
2026-03-30T22:44:11.936499,159.99792900142668,1830.1424499370983,6,109,23,11
2026-03-30T22:44:11.986499,159.99560537602204,0.0,349,108,326,343
2026-03-30T22:44:12.036499,159.96829794278798,0.0,332,107,268,314
2026-03-30T22:44:12.086499,159.9160749560862,0.0,315,107,211,286
2026-03-30T22:44:12.136499,159.83906694618616,0.0,299,106,155,259
2026-03-30T22:44:12.186499,159.73746639300768,0.0,283,105,99,232
2026-03-30T22:44:12.236499,159.61152724502116,0.0,268,104,43,207
2026-03-30T22:44:12.286499,159.4615642845087,0.0,254,103,349,184
2026-03-30T22:44:12.336499,159.2879523407724,0.0,241,102,295,162
2026-03-30T22:44:12.386499,159.09112535325625,0.0,229,101,242,143
2026-03-30T22:44:12.436499,158.8715752869235,0.0,219,100,191,125
2026-03-30T22:44:12.486499,158.62985090260054,0.0,210,99,141,110
2026-03-30T22:44:12.536499,158.36655638536055,0.0,202,97,92,97
2026-03-30T22:44:12.586499,158.0823498343755,0.0,196,96,45,87
2026-03-30T22:44:12.636499,157.7779416180109,0.0,191,95,359,79
2026-03-30T22:44:12.686499,157.45409259827503,0.0,189,94,316,75
2026-03-30T22:44:12.736499,157.1116122290598,0.0,188,92,274,73
2026-03-30T22:44:12.786499,156.751356532928,0.0,188,91,234,74
2026-03-30T22:44:12.836499,156.3742259615024,0.0,191,90,197,78
2026-03-30T22:44:12.886499,155.98116314480572,0.0,195,88,161,85
2026-03-30T22:44:12.936499,155.57315053517658,0.0,200,87,128,94
2026-03-30T22:44:12.986499,155.1512079516502,0.0,208,85,97,107
2026-03-30T22:44:13.036499,154.71639003094197,0.0,217,84,69,121
2026-03-30T22:44:13.086499,154.26978359140477,0.0,227,82,43,138
2026-03-30T22:44:13.136499,153.81250491654941,0.0,238,80,20,158
2026-03-30T22:44:13.186499,153.3456969649168,0.0,251,79,0,179
2026-03-30T22:44:13.236499,152.87052651327724,0.0,265,77,342,202
2026-03-30T22:44:13.286499,152.38818124029584,0.0,280,75,327,227
2026-03-30T22:44:13.336499,151.89986675795438,0.0,295,74,314,253
2026-03-30T22:44:13.386499,151.4068035981495,0.0,312,72,305,280
2026-03-30T22:44:13.436499,150.91022416199846,0.0,328,70,298,308
2026-03-30T22:44:13.486499,150.41136963947795,0.0,345,68,295,336
2026-03-30T22:44:13.536499,149.91148690709596,1389.4423523190987,3,67,294,5
2026-03-30T22:44:13.586499,149.41182541134947,2000.0,20,65,296,33
2026-03-30T22:44:13.636499,148.9136340457592,2000.0,37,63,300,61
2026-03-30T22:44:13.686499,148.41815802928608,2000.0,53,61,308,89
2026-03-30T22:44:13.736499,147.92663579393238,2000.0,69,59,318,116
2026-03-30T22:44:13.786499,147.44029588930667,2000.0,85,57,332,141
2026-03-30T22:44:13.836499,146.96035391188954,2000.0,99,55,348,165
2026-03-30T22:44:13.886499,146.48800946667558,2000.0,113,53,7,188
2026-03-30T22:44:13.936499,146.02444316878564,2000.0,125,51,28,209
2026-03-30T22:44:13.986499,145.57081369254377,2000.0,136,49,52,227
2026-03-30T22:44:14.036499,145.1282548753949,2000.0,146,47,79,243
2026-03-30T22:44:14.086499,144.6978728839017,2000.0,154,45,108,257
2026-03-30T22:44:14.136499,144.28074344890436,2000.0,161,43,139,268
2026-03-30T22:44:14.186499,143.87790917675352,2000.0,166,40,173,277
2026-03-30T22:44:14.236499,143.4903769433375,2000.0,169,38,210,283
2026-03-30T22:44:14.286499,143.11911537741702,2000.0,171,36,248,286
2026-03-30T22:44:14.336499,142.76505243955756,2000.0,171,34,288,286
2026-03-30T22:44:14.386499,142.42907310271133,2000.0,170,32,331,283
2026-03-30T22:44:14.436499,142.11201714024583,2000.0,166,29,15,277
2026-03-30T22:44:14.486499,141.81467702694763,2000.0,161,27,61,269
2026-03-30T22:44:14.536499,141.5377959582483,2000.0,155,25,109,258
2026-03-30T22:44:14.586499,141.28206599262265,2000.0,146,23,158,244
2026-03-30T22:44:14.636499,141.04812632180318,2000.0,137,21,209,228
2026-03-30T22:44:14.686499,140.83656167313353,2000.0,126,18,261,210
2026-03-30T22:44:14.736499,140.6479008480546,2000.0,113,16,314,189
2026-03-30T22:44:14.786499,140.48261540037646,2000.0,100,14,8,167
2026-03-30T22:44:14.836499,140.34111845763928,2000.0,85,11,63,143
2026-03-30T22:44:14.886499,140.22376368850976,2000.0,70,9,118,117
2026-03-30T22:44:14.936499,140.13084441879352,2000.0,54,7,175,91
2026-03-30T22:44:14.986499,140.0625928982734,2000.0,38,5,231,63
2026-03-30T22:44:15.036499,140.01917972020604,2000.0,21,2,289,35
2026-03-30T22:44:15.086499,140.00071339492743,1562.5513668895,4,0,346,6
2026-03-30T22:44:15.136499,140.0072400786337,0.0,346,358,43,338
2026-03-30T22:44:15.186499,140.03874345801466,0.0,329,355,100,309
2026-03-30T22:44:15.236499,140.09514479102845,0.0,313,353,157,281
2026-03-30T22:44:15.286499,140.17630310371578,0.0,296,351,214,254
2026-03-30T22:44:15.336499,140.28201554256137,0.0,281,349,270,228
2026-03-30T22:44:15.386499,140.4120178815221,0.0,266,346,325,203
2026-03-30T22:44:15.436499,140.56598518245445,0.0,252,344,20,180
2026-03-30T22:44:15.486499,140.74353260729075,0.0,239,342,73,159
2026-03-30T22:44:15.536499,140.94421637993375,0.0,227,340,126,139
2026-03-30T22:44:15.586499,141.16753489546602,0.0,217,337,177,122
2026-03-30T22:44:15.636499,141.4129299739007,0.0,208,335,227,107
2026-03-30T22:44:15.686499,141.679788255341,0.0,201,333,275,95
2026-03-30T22:44:15.736499,141.96744273306047,0.0,195,331,322,85
2026-03-30T22:44:15.786499,142.2751744206723,0.0,191,328,7,78
2026-03-30T22:44:15.836499,142.60221414922106,0.0,188,326,51,74
2026-03-30T22:44:15.886499,142.94774448970438,0.0,188,324,92,73
2026-03-30T22:44:15.936499,143.31090179621978,0.0,189,322,131,75
2026-03-30T22:44:15.986499,143.69077836462964,0.0,191,320,169,79
2026-03-30T22:44:16.036499,144.08642470134876,0.0,196,318,204,86
2026-03-30T22:44:16.086499,144.49685189658408,0.0,202,315,236,96
2026-03-30T22:44:16.136499,144.9210340960938,0.0,209,313,267,109
2026-03-30T22:44:16.186499,145.35791106528896,0.0,218,311,294,124
2026-03-30T22:44:16.236499,145.80639083926772,0.0,229,309,320,141
2026-03-30T22:44:16.286499,146.26535245215885,0.0,240,307,343,161
2026-03-30T22:44:16.336499,146.73364873895278,0.0,253,305,3,183
2026-03-30T22:44:16.386499,147.21010920281645,0.0,267,303,20,206
2026-03-30T22:44:16.436499,147.69354294072608,0.0,282,301,35,231
2026-03-30T22:44:16.486499,148.18274162010425,0.0,298,299,46,257
2026-03-30T22:44:16.536499,148.67648249902226,0.0,314,297,55,284
2026-03-30T22:44:16.586499,149.17353148241818,0.0,331,295,61,312
2026-03-30T22:44:16.636499,149.67264620669155,0.0,348,293,65,341
2026-03-30T22:44:16.686499,150.17257914496562,1867.9438180085672,5,292,65,9
2026-03-30T22:44:16.736499,150.67208072525477,2000.0,23,290,63,38
2026-03-30T22:44:16.786499,151.16990245374365,2000.0,39,288,58,66
2026-03-30T22:44:16.836499,151.6648000353716,2000.0,56,286,49,94
2026-03-30T22:44:16.886499,152.15553648392222,2000.0,72,284,38,120
2026-03-30T22:44:16.936499,152.64088521384474,2000.0,87,283,25,145
2026-03-30T22:44:16.986499,153.11963310607905,2000.0,101,281,8,169
2026-03-30T22:44:17.036499,153.59058354022167,2000.0,115,279,349,192
2026-03-30T22:44:17.086499,154.05255938545355,2000.0,127,278,327,212
2026-03-30T22:44:17.136499,154.5044059427539,2000.0,138,276,303,230
2026-03-30T22:44:17.186499,154.94499383104662,2000.0,147,275,276,246
2026-03-30T22:44:17.236499,155.37322181006473,2000.0,155,273,246,259
2026-03-30T22:44:17.286499,155.7880195328775,2000.0,162,272,214,270
2026-03-30T22:44:17.336499,156.18835022120038,2000.0,167,270,180,278
2026-03-30T22:44:17.386499,156.57321325680078,2000.0,170,269,143,283
2026-03-30T22:44:17.436499,156.94164668252245,2000.0,171,267,104,286
2026-03-30T22:44:17.486499,157.2927296066775,2000.0,171,266,64,285
2026-03-30T22:44:17.536499,157.62558450479602,2000.0,169,265,21,282
2026-03-30T22:44:17.586499,157.9393794129802,2000.0,165,263,336,276
2026-03-30T22:44:17.636499,158.23333000738083,2000.0,160,262,290,267
2026-03-30T22:44:17.686499,158.50670156459836,2000.0,153,261,242,256
2026-03-30T22:44:17.736499,158.75881079810893,2000.0,145,260,192,242
2026-03-30T22:44:17.786499,158.98902756612466,2000.0,135,259,142,225
2026-03-30T22:44:17.836499,159.1967764466202,2000.0,124,258,89,206
2026-03-30T22:44:17.886499,159.38153817558776,2000.0,111,257,36,186
2026-03-30T22:44:17.936499,159.54285094492698,2000.0,98,256,342,163
2026-03-30T22:44:17.986499,159.68031155672458,2000.0,83,255,287,139
2026-03-30T22:44:18.036499,159.79357643103918,2000.0,68,254,231,113
2026-03-30T22:44:18.086499,159.88236246467218,2000.0,51,253,175,86
2026-03-30T22:44:18.136499,159.94644773877837,2000.0,35,252,118,58
2026-03-30T22:44:18.186499,159.98567207354748,2000.0,18,251,61,30
2026-03-30T22:44:18.236499,159.9999374285702,1188.9038883979663,1,251,4,2
2026-03-30T22:44:18.286499,159.98920814788823,0.0,344,250,306,333
2026-03-30T22:44:18.336499,159.9535110491156,0.0,327,249,249,305
2026-03-30T22:44:18.386499,159.8929353564085,0.0,310,249,192,277
2026-03-30T22:44:18.436499,159.80763247745153,0.0,294,248,136,250
2026-03-30T22:44:18.486499,159.69781562501717,0.0,278,248,80,224
2026-03-30T22:44:18.536499,159.56375928404503,0.0,263,247,25,199
2026-03-30T22:44:18.586499,159.40579852557232,0.0,250,247,330,177
2026-03-30T22:44:18.636499,159.22432816923086,0.0,237,246,277,155
2026-03-30T22:44:18.686499,159.01980179640356,0.0,226,246,225,136
2026-03-30T22:44:18.736499,158.7927306165072,0.0,216,246,174,120
2026-03-30T22:44:18.786499,158.54368218923523,0.0,207,245,124,105
2026-03-30T22:44:18.836499,158.27327900595378,0.0,200,245,76,93
2026-03-30T22:44:18.886499,157.98219693379787,0.0,194,245,29,84
2026-03-30T22:44:18.936499,157.6711635263553,0.0,190,245,344,78
2026-03-30T22:44:18.986499,157.34095620516152,0.0,188,245,301,74
2026-03-30T22:44:19.036499,156.99240031655097,0.0,188,245,260,73
2026-03-30T22:44:19.086499,156.62636706872073,0.0,189,245,221,75
2026-03-30T22:44:19.136499,156.24377135416393,0.0,192,245,184,80
2026-03-30T22:44:19.186499,155.84556946291497,0.0,196,245,150,88
2026-03-30T22:44:19.236499,155.43275669232244,0.0,203,245,117,98
2026-03-30T22:44:19.286499,155.00636485932415,0.0,211,246,88,111
2026-03-30T22:44:19.336499,154.56745972144194,0.0,220,246,60,127
2026-03-30T22:44:19.386499,154.11713831294315,0.0,231,246,35,145
2026-03-30T22:44:19.436499,153.65652620282617,0.0,243,246,13,165
2026-03-30T22:44:19.486499,153.1867746814842,0.0,256,247,353,186
2026-03-30T22:44:19.536499,152.70905788307869,0.0,270,247,336,210
2026-03-30T22:44:19.586499,152.22456985081553,0.0,285,248,322,235
2026-03-30T22:44:19.636499,151.73452155245892,0.0,301,248,311,262
2026-03-30T22:44:19.686499,151.24013785354254,0.0,317,249,302,289
2026-03-30T22:44:19.736499,150.74265445584356,0.0,334,250,297,317
2026-03-30T22:44:19.786499,150.24331480877203,0.0,351,250,294,346
2026-03-30T22:44:19.836499,149.7433670013944,2000.0,8,251,294,14
2026-03-30T22:44:19.886499,149.24406064286143,2000.0,25,252,297,43
2026-03-30T22:44:19.936499,148.74664373903568,2000.0,42,252,303,71
2026-03-30T22:44:19.986499,148.25235957312702,2000.0,59,253,311,98
2026-03-30T22:44:20.036499,147.76244359813202,2000.0,74,254,323,124
2026-03-30T22:44:20.086499,147.27812034884485,2000.0,90,255,337,150
2026-03-30T22:44:20.136499,146.800600381158,2000.0,104,256,354,173
2026-03-30T22:44:20.186499,146.33107724630318,2000.0,117,257,13,195
2026-03-30T22:44:20.236499,145.87072450759456,2000.0,129,258,36,215
2026-03-30T22:44:20.286499,145.4206928071319,2000.0,139,259,61,233
2026-03-30T22:44:20.336499,144.98210698979426,2000.0,149,260,88,248
2026-03-30T22:44:20.386499,144.556063291714,2000.0,156,261,118,261
2026-03-30T22:44:20.436499,144.143626600257,2000.0,163,263,151,271
2026-03-30T22:44:20.486499,143.74582779235905,2000.0,167,264,185,279
2026-03-30T22:44:20.536499,143.36366115787033,2000.0,170,265,222,284
2026-03-30T22:44:20.586499,142.99808191434843,2000.0,171,267,261,286
2026-03-30T22:44:20.636499,142.65000381951222,2000.0,171,268,302,285
2026-03-30T22:44:20.686499,142.32029688732322,2000.0,169,269,346,281
2026-03-30T22:44:20.736499,142.00978521340383,2000.0,165,271,30,275
2026-03-30T22:44:20.786499,141.71924491522756,2000.0,159,272,77,265
2026-03-30T22:44:20.836499,141.4494021922293,2000.0,152,274,125,254
2026-03-30T22:44:20.886499,141.20093151068522,2000.0,143,275,175,239
2026-03-30T22:44:20.936499,140.97445391789813,2000.0,133,277,226,222
2026-03-30T22:44:20.986499,140.77053548990278,2000.0,122,278,278,203
2026-03-30T22:44:21.036499,140.58968591657046,2000.0,109,280,332,182
2026-03-30T22:44:21.086499,140.43235722764987,2000.0,95,282,26,159
2026-03-30T22:44:21.136499,140.29894266292814,2000.0,80,283,81,134
2026-03-30T22:44:21.186499,140.1897756893361,2000.0,65,285,137,108
2026-03-30T22:44:21.236499,140.10512916745463,2000.0,49,287,194,81
2026-03-30T22:44:21.286499,140.04521466950544,2000.0,32,289,251,54
2026-03-30T22:44:21.336499,140.0101819505305,2000.0,15,290,308,25
2026-03-30T22:44:21.386499,140.00011857408256,709.2780797890973,358,292,5,357
2026-03-30T22:44:21.436499,140.01504969336185,0.0,341,294,62,328
2026-03-30T22:44:21.486499,140.05493798834615,0.0,324,296,119,300
2026-03-30T22:44:21.536499,140.1196837590714,0.0,307,298,176,272
2026-03-30T22:44:21.586499,140.20912517482972,0.0,291,300,233,245
2026-03-30T22:44:21.636499,140.32303867866196,0.0,276,302,288,220
2026-03-30T22:44:21.686499,140.4611395461335,0.0,261,304,343,195
2026-03-30T22:44:21.736499,140.6230825969972,0.0,247,306,38,173
2026-03-30T22:44:21.786499,140.80846305796422,0.0,235,308,91,152
2026-03-30T22:44:21.836499,141.01681757442645,0.0,224,310,143,133
2026-03-30T22:44:21.886499,141.24762536860163,0.0,214,312,194,117
2026-03-30T22:44:21.936499,141.50030954120675,0.0,206,314,243,103
2026-03-30T22:44:21.986499,141.7742385134056,0.0,199,316,291,91
2026-03-30T22:44:22.036499,142.06872760542714,0.0,193,318,337,83
2026-03-30T22:44:22.086499,142.38304074790835,0.0,190,321,22,77
2026-03-30T22:44:22.136499,142.71639232168405,0.0,188,323,65,74
2026-03-30T22:44:22.186499,143.06794912142604,0.0,188,325,105,73
2026-03-30T22:44:22.236499,143.43683243822213,0.0,189,327,144,76
2026-03-30T22:44:22.286499,143.82212025589104,0.0,192,329,181,81
2026-03-30T22:44:22.336499,144.2228495555427,0.0,197,332,215,89
2026-03-30T22:44:22.386499,144.63801872262368,0.0,204,334,247,100
2026-03-30T22:44:22.436499,145.06659005043224,0.0,212,336,276,114
2026-03-30T22:44:22.486499,145.5074923338445,0.0,222,338,303,130
2026-03-30T22:44:22.536499,145.95962354676934,0.0,232,341,328,148
2026-03-30T22:44:22.586499,146.42185359663992,0.0,245,343,350,168
2026-03-30T22:44:22.636499,146.89302714905628,0.0,258,345,9,190
2026-03-30T22:44:22.686499,147.3719665155198,0.0,272,347,25,214
2026-03-30T22:44:22.736499,147.85747459704115,0.0,288,350,39,240
2026-03-30T22:44:22.786499,148.3483378762642,0.0,303,352,50,266
2026-03-30T22:44:22.836499,148.84332945062764,0.0,320,354,58,294
2026-03-30T22:44:22.886499,149.3412120989821,0.0,337,356,63,322
2026-03-30T22:44:22.936499,149.840741373999,0.0,354,359,65,350
2026-03-30T22:44:22.986499,150.34066871264065,2000.0,11,1,65,19
2026-03-30T22:44:23.036499,150.83974455691748,2000.0,28,3,61,47
2026-03-30T22:44:23.086499,151.33672147713256,2000.0,45,6,55,75
2026-03-30T22:44:23.136499,151.83035728980587,2000.0,61,8,46,103
2026-03-30T22:44:23.186499,152.31941816248636,2000.0,77,10,34,129
2026-03-30T22:44:23.236499,152.80268169769022,2000.0,92,12,19,154
2026-03-30T22:44:23.286499,153.27893998825826,2000.0,106,15,2,177
2026-03-30T22:44:23.336499,153.7470026364946,2000.0,119,17,342,199
2026-03-30T22:44:23.386499,154.20569972954098,2000.0,131,19,319,218
2026-03-30T22:44:23.436499,154.6538847635496,2000.0,141,22,294,236
2026-03-30T22:44:23.486499,155.09043750934563,2000.0,150,24,266,251
2026-03-30T22:44:23.536499,155.5142668124169,2000.0,158,26,235,263
2026-03-30T22:44:23.586499,155.92431332023182,2000.0,164,28,203,273
2026-03-30T22:44:23.636499,156.31955213006884,2000.0,168,30,168,280
2026-03-30T22:44:23.686499,156.69899535073984,2000.0,170,33,130,284
2026-03-30T22:44:23.736499,157.06169457180334,2000.0,171,35,91,286
2026-03-30T22:44:23.786499,157.40674323409675,2000.0,171,37,49,285
2026-03-30T22:44:23.836499,157.73327889566224,2000.0,168,39,6,280
2026-03-30T22:44:23.886499,158.04048538740236,2000.0,164,41,321,273
2026-03-30T22:44:23.936499,158.3275948530778,2000.0,158,43,274,264
2026-03-30T22:44:23.986499,158.59388966854814,2000.0,151,46,225,251
2026-03-30T22:44:24.036499,158.8387042354583,2000.0,142,48,175,236
2026-03-30T22:44:24.086499,159.06142664488803,2000.0,131,50,124,219
2026-03-30T22:44:24.136499,159.2615002068053,2000.0,120,52,72,200
2026-03-30T22:44:24.186499,159.4384248415016,2000.0,107,54,18,178
2026-03-30T22:44:24.236499,159.59175832953082,2000.0,93,56,324,155
2026-03-30T22:44:24.286499,159.72111741702733,2000.0,78,58,268,130
2026-03-30T22:44:24.336499,159.8261787736414,2000.0,62,60,212,104
2026-03-30T22:44:24.386499,159.90667980069634,2000.0,46,62,156,77
2026-03-30T22:44:24.436499,159.96241928754864,2000.0,29,64,99,49
2026-03-30T22:44:24.486499,159.99325791450974,2000.0,12,65,42,21
2026-03-30T22:44:24.536499,159.99911860107267,123.81191720909578,355,67,344,352
2026-03-30T22:44:24.586499,159.9799866985732,0.0,338,69,287,323
2026-03-30T22:44:24.636499,159.93591002680395,0.0,321,71,230,295
2026-03-30T22:44:24.686499,159.86699875448957,0.0,304,73,173,268
2026-03-30T22:44:24.736499,159.77342512392258,0.0,288,75,117,241
2026-03-30T22:44:24.786499,159.65542302044722,0.0,273,76,61,216
2026-03-30T22:44:24.836499,159.51328738786782,0.0,259,78,6,192
2026-03-30T22:44:24.886499,159.34737349124305,0.0,245,80,312,169
2026-03-30T22:44:24.936499,159.15809602890818,0.0,233,81,259,149
2026-03-30T22:44:24.986499,158.94592809594525,0.0,222,83,207,130
2026-03-30T22:44:25.036499,158.71140000169177,0.0,212,84,157,114
2026-03-30T22:44:25.086499,158.45509794424342,0.0,204,86,108,101
2026-03-30T22:44:25.136499,158.1776625452644,0.0,198,87,60,90
2026-03-30T22:44:25.186499,157.87978724876658,0.0,193,89,14,82
2026-03-30T22:44:25.236499,157.56221658786063,0.0,189,90,330,76
2026-03-30T22:44:25.286499,157.22574432381134,0.0,188,92,287,73
2026-03-30T22:44:25.336499,156.8712114620474,0.0,188,93,247,73
2026-03-30T22:44:25.386499,156.49950415008612,0.0,190,94,209,76
2026-03-30T22:44:25.436499,156.11155146262595,0.0,193,96,172,82
2026-03-30T22:44:25.486499,155.70832307934364,0.0,198,97,139,91
2026-03-30T22:44:25.536499,155.29082686120023,0.0,205,98,107,102
2026-03-30T22:44:25.586499,154.86010633131312,0.0,213,99,78,116
2026-03-30T22:44:25.636499,154.41723806669225,0.0,223,100,51,132
2026-03-30T22:44:25.686499,153.96332900735774,0.0,234,101,27,151
2026-03-30T22:44:25.736499,153.4995136895666,0.0,247,102,6,172
2026-03-30T22:44:25.786499,153.02695141006316,0.0,260,103,347,194
2026-03-30T22:44:25.836499,152.54682332844027,0.0,275,104,331,218
2026-03-30T22:44:25.886499,152.06032951485633,0.0,290,105,318,244
2026-03-30T22:44:25.936499,151.5686859504841,0.0,306,106,308,271
2026-03-30T22:44:25.986499,151.07312148819145,0.0,323,107,300,298
2026-03-30T22:44:26.036499,150.57487478104923,0.0,340,108,295,327
2026-03-30T22:44:26.086499,150.07519118634335,480.44359010828987,357,108,294,355
2026-03-30T22:44:26.136499,149.57531965283047,2000.0,14,109,295,24
2026-03-30T22:44:26.186499,149.0765095990163,2000.0,31,110,298,52
2026-03-30T22:44:26.236499,148.58000779025997,2000.0,48,110,305,80
2026-03-30T22:44:26.286499,148.08705522251046,2000.0,64,111,315,107
2026-03-30T22:44:26.336499,147.59888402046218,2000.0,80,111,327,133
2026-03-30T22:44:26.386499,147.1167143578858,2000.0,94,112,342,158
2026-03-30T22:44:26.436499,146.6417514078286,2000.0,108,112,0,181
2026-03-30T22:44:26.486499,146.17518233030967,2000.0,121,113,21,202
2026-03-30T22:44:26.536499,145.71817330503848,2000.0,133,113,44,221
2026-03-30T22:44:26.586499,145.27186661657242,2000.0,143,113,70,238
2026-03-30T22:44:26.636499,144.83737779920074,2000.0,151,114,98,253
2026-03-30T22:44:26.686499,144.41579284868936,2000.0,159,114,129,265
2026-03-30T22:44:26.736499,144.00816550785734,2000.0,164,114,162,274
2026-03-30T22:44:26.786499,143.61551463276868,2000.0,168,114,198,281
2026-03-30T22:44:26.836499,143.23882164612232,2000.0,171,114,235,285
2026-03-30T22:44:26.886499,142.87902808420708,2000.0,171,114,275,286
2026-03-30T22:44:26.936499,142.53703324355084,2000.0,170,114,317,284
2026-03-30T22:44:26.986499,142.21369193314771,2000.0,167,114,0,279
2026-03-30T22:44:27.036499,141.90981233788094,2000.0,163,114,46,272
2026-03-30T22:44:27.086499,141.62615399848113,2000.0,157,114,93,262
2026-03-30T22:44:27.136499,141.36342591307044,2000.0,149,113,142,249
2026-03-30T22:44:27.186499,141.12228476503626,2000.0,140,113,192,234
2026-03-30T22:44:27.236499,140.90333328166471,2000.0,129,113,244,216
2026-03-30T22:44:27.286499,140.7071187276366,2000.0,117,113,296,196
2026-03-30T22:44:27.336499,140.53413153715036,2000.0,104,112,350,174
2026-03-30T22:44:27.386499,140.3848040880923,2000.0,90,112,45,151
2026-03-30T22:44:27.436499,140.25950962131674,2000.0,75,111,100,126
2026-03-30T22:44:27.486499,140.15856130773855,2000.0,60,111,156,100
2026-03-30T22:44:27.536499,140.08221146556883,2000.0,43,110,213,72
2026-03-30T22:44:27.586499,140.0306509296508,2000.0,26,110,270,44
2026-03-30T22:44:27.636499,140.00400857447198,2000.0,9,109,327,16
2026-03-30T22:44:27.686499,140.00235099204528,0.0,352,108,24,347
2026-03-30T22:44:27.736499,140.02568232546352,0.0,335,107,82,319
2026-03-30T22:44:27.786499,140.07394425854386,0.0,318,107,139,290
2026-03-30T22:44:27.836499,140.14701616158797,0.0,302,106,195,263
2026-03-30T22:44:27.886499,140.2447153928933,0.0,286,105,251,237
2026-03-30T22:44:27.936499,140.36679775526238,0.0,271,104,307,211
2026-03-30T22:44:27.986499,140.5129581063686,0.0,256,103,2,188
2026-03-30T22:44:28.036499,140.68283112145295,0.0,243,102,56,166
2026-03-30T22:44:28.086499,140.87599220644594,0.0,231,101,109,146
2026-03-30T22:44:28.136499,141.0919585592314,0.0,220,100,160,128
2026-03-30T22:44:28.186499,141.33019037640045,0.0,211,99,211,112
2026-03-30T22:44:28.236499,141.59009220247898,0.0,203,98,259,99
2026-03-30T22:44:28.286499,141.87101441825598,0.0,197,96,307,88
2026-03-30T22:44:28.336499,142.1722548644935,0.0,192,95,353,80
2026-03-30T22:44:28.386499,142.49306059695888,0.0,189,94,37,75
2026-03-30T22:44:28.436499,142.83262976839342,0.0,188,93,79,73
2026-03-30T22:44:28.486499,143.19011363271275,0.0,188,91,119,74
2026-03-30T22:44:28.536499,143.56461866643,0.0,190,90,157,77
2026-03-30T22:44:28.586499,143.95520880199942,0.0,194,88,192,84
2026-03-30T22:44:28.636499,144.36090776749737,0.0,199,87,226,93
2026-03-30T22:44:28.686499,144.78070152679413,0.0,206,85,257,104
2026-03-30T22:44:28.736499,145.21354081411585,0.0,215,84,286,119
2026-03-30T22:44:28.786499,145.65834375666248,0.0,225,82,312,135
2026-03-30T22:44:28.836499,146.11399857872664,0.0,236,81,335,154
2026-03-30T22:44:28.886499,146.5793663805535,0.0,249,79,356,175
2026-03-30T22:44:28.936499,147.05328398499742,0.0,263,77,15,198
2026-03-30T22:44:28.986499,147.5345668448589,0.0,277,76,30,223
2026-03-30T22:44:29.036499,148.02201200363538,0.0,293,74,43,248
2026-03-30T22:44:29.086499,148.5144011022866,0.0,309,72,53,275
2026-03-30T22:44:29.136499,149.0105034244971,0.0,326,70,60,303
2026-03-30T22:44:29.186499,149.5090789728265,0.0,343,69,64,331
2026-03-30T22:44:29.236499,150.00888156805718,1066.9669967385535,0,67,65,0
2026-03-30T22:44:29.286499,150.50866196399306,2000.0,17,65,64,29
2026-03-30T22:44:29.336499,151.00717096992508,2000.0,34,63,60,57
2026-03-30T22:44:29.386499,151.5031625729567,2000.0,51,61,52,85
2026-03-30T22:44:29.436499,151.9953970523879,2000.0,67,59,42,112
2026-03-30T22:44:29.486499,152.48264407837084,2000.0,82,57,30,137
2026-03-30T22:44:29.536499,152.96368578709385,2000.0,97,55,14,162
2026-03-30T22:44:29.586499,153.4373198248069,2000.0,110,53,356,184
2026-03-30T22:44:29.636499,153.90236235307947,2000.0,123,51,335,205
2026-03-30T22:44:29.686499,154.35765100778033,2000.0,134,49,311,224
2026-03-30T22:44:29.736499,154.8020478043826,2000.0,144,47,285,241
2026-03-30T22:44:29.786499,155.234441982332,2000.0,153,45,256,255
2026-03-30T22:44:29.836499,155.6537527813703,2000.0,160,43,225,267
2026-03-30T22:44:29.886499,156.05893214287264,2000.0,165,41,191,276
2026-03-30T22:44:29.936499,156.44896732944872,2000.0,169,39,155,282
2026-03-30T22:44:29.986499,156.8228834562584,2000.0,171,36,117,285
2026-03-30T22:44:30.036499,157.17974592771645,2000.0,171,34,77,286
2026-03-30T22:44:30.086499,157.51866277349464,2000.0,170,32,35,284
2026-03-30T22:44:30.136499,157.83878687798293,2000.0,167,30,351,278
2026-03-30T22:44:30.186499,158.13931809763758,2000.0,162,28,305,270
2026-03-30T22:44:30.236499,158.41950526092305,2000.0,156,25,258,260
2026-03-30T22:44:30.286499,158.67864804584977,2000.0,148,23,209,247
2026-03-30T22:44:30.336499,158.91609873041443,2000.0,138,21,158,231
2026-03-30T22:44:30.386499,159.1312638115675,2000.0,127,19,107,213
2026-03-30T22:44:30.436499,159.3236054886619,2000.0,115,16,54,193
2026-03-30T22:44:30.486499,159.49264300767453,2000.0,102,14,0,171
2026-03-30T22:44:30.536499,159.63795386284087,2000.0,88,12,305,147
2026-03-30T22:44:30.586499,159.7591748526995,2000.0,73,10,249,121
2026-03-30T22:44:30.636499,159.85600298790632,2000.0,57,7,193,95
2026-03-30T22:44:30.686499,159.92819624855056,2000.0,40,5,137,68
2026-03-30T22:44:30.736499,159.97557418907806,2000.0,23,3,80,39
2026-03-30T22:44:30.786499,159.99801838931145,2000.0,6,0,22,11
2026-03-30T22:44:30.836499,159.99547275043892,0.0,349,358,325,342
2026-03-30T22:44:30.886499,159.96794363523185,0.0,332,356,268,314
2026-03-30T22:44:30.936499,159.9154998521414,0.0,315,354,211,286
2026-03-30T22:44:30.986499,159.8382724833131,0.0,299,351,154,259
2026-03-30T22:44:31.036499,159.73645455694978,0.0,283,349,98,232
2026-03-30T22:44:31.086499,159.6103005648416,0.0,268,347,43,207
2026-03-30T22:44:31.136499,159.4601258262691,0.0,254,344,348,184
2026-03-30T22:44:31.186499,159.28630569986916,0.0,241,342,294,162
2026-03-30T22:44:31.236499,159.08927464543413,0.0,229,340,242,142
2026-03-30T22:44:31.286499,158.86952513798826,0.0,219,338,190,125
2026-03-30T22:44:31.336499,158.62760643685675,0.0,210,335,140,110
2026-03-30T22:44:31.386499,158.36412321280372,0.0,202,333,91,97
2026-03-30T22:44:31.436499,158.0797340366698,0.0,196,331,44,87
2026-03-30T22:44:31.486499,157.7751497332884,0.0,191,329,359,79
2026-03-30T22:44:31.536499,157.4511316047935,0.0,189,327,315,75
2026-03-30T22:44:31.586499,157.10848952776087,0.0,188,324,274,73
2026-03-30T22:44:31.636499,156.74807992893867,0.0,188,322,234,74
2026-03-30T22:44:31.686499,156.37080364462616,0.0,191,320,196,78
2026-03-30T22:44:31.736499,155.97760366905254,0.0,195,318,161,85
2026-03-30T22:44:31.786499,155.5694627973821,0.0,200,316,128,94
2026-03-30T22:44:31.836499,155.14740116923832,0.0,208,314,97,107
2026-03-30T22:44:31.886499,154.7124737188862,0.0,217,312,69,121
2026-03-30T22:44:31.936499,154.26576753844566,0.0,227,309,43,138
2026-03-30T22:44:31.986499,153.80839916072787,0.0,238,307,20,158
2026-03-30T22:44:32.036499,153.3415117684842,0.0,251,305,359,179
2026-03-30T22:44:32.086499,152.86627233704493,0.0,265,303,342,202
2026-03-30T22:44:32.136499,152.38386871748892,0.0,280,301,327,227
2026-03-30T22:44:32.186499,151.89550666763392,0.0,296,299,314,253
2026-03-30T22:44:32.236499,151.4024068382707,0.0,312,297,305,280
2026-03-30T22:44:32.286499,150.9058017221712,0.0,328,296,298,308
2026-03-30T22:44:32.336499,150.40693257349858,0.0,346,294,295,336
2026-03-30T22:44:32.386499,149.9070463053187,1759.3988759103936,3,292,294,5
2026-03-30T22:44:32.436499,149.40739237296606,2000.0,20,290,296,33
2026-03-30T22:44:32.486499,148.90921965105701,2000.0,37,288,300,62
2026-03-30T22:44:32.536499,148.41377331195292,2000.0,53,286,308,89
2026-03-30T22:44:32.586499,147.92229171347796,2000.0,69,285,319,116
2026-03-30T22:44:32.636499,147.43600330366982,2000.0,85,283,332,141
2026-03-30T22:44:32.686499,146.95612355029877,2000.0,99,281,348,166
2026-03-30T22:44:32.736499,146.48385190283184,2000.0,113,280,7,188
2026-03-30T22:44:32.786499,146.0203687944333,2000.0,125,278,28,209
2026-03-30T22:44:32.836499,145.56683269149673,2000.0,136,276,52,227
2026-03-30T22:44:32.886499,145.12437719808258,2000.0,146,275,79,243
2026-03-30T22:44:32.936499,144.6941082224979,2000.0,154,273,108,257
2026-03-30T22:44:32.986499,144.27710121310201,2000.0,161,272,140,268
2026-03-30T22:44:33.036499,143.8743984702453,2000.0,166,270,174,277
2026-03-30T22:44:33.086499,143.4870065410613,2000.0,169,269,210,283
2026-03-30T22:44:33.136499,143.1158937036233,2000.0,171,268,248,286
2026-03-30T22:44:33.186499,142.76198754675292,2000.0,171,266,289,286
2026-03-30T22:44:33.236499,142.4261726515317,2000.0,170,265,331,283
2026-03-30T22:44:33.286499,142.1092883803086,2000.0,166,264,16,277
2026-03-30T22:44:33.336499,141.8121267787315,2000.0,161,262,62,269
2026-03-30T22:44:33.386499,141.53543059604573,2000.0,154,261,109,258
2026-03-30T22:44:33.436499,141.27989142860724,2000.0,146,260,159,244
2026-03-30T22:44:33.486499,141.0461479912525,2000.0,137,259,209,228
2026-03-30T22:44:33.536499,140.83478452084367,2000.0,126,258,261,210
2026-03-30T22:44:33.586499,140.64632931598072,2000.0,113,257,314,189
2026-03-30T22:44:33.636499,140.48125341653036,2000.0,100,256,8,167
2026-03-30T22:44:33.686499,140.33996942627124,2000.0,85,255,63,143
2026-03-30T22:44:33.736499,140.2228304815998,2000.0,70,254,119,117
2026-03-30T22:44:33.786499,140.1301293688729,2000.0,54,253,175,90
2026-03-30T22:44:33.836499,140.06209779259453,2000.0,38,252,232,63
2026-03-30T22:44:33.886499,140.01890579627528,2000.0,21,251,289,35
2026-03-30T22:44:33.936499,140.00066133741197,1975.1838332651937,3,251,346,6
2026-03-30T22:44:33.986499,140.00741001765022,0.0,346,250,44,337
2026-03-30T22:44:34.036499,140.03913496880406,0.0,329,249,101,309
2026-03-30T22:44:34.086499,140.09575689501767,0.0,312,249,158,281
2026-03-30T22:44:34.136499,140.17713427096365,0.0,296,248,214,254
2026-03-30T22:44:34.186499,140.28306369558265,0.0,281,248,270,228
2026-03-30T22:44:34.236499,140.41328040048006,0.0,266,247,326,203
2026-03-30T22:44:34.286499,140.56745891170925,0.0,252,247,20,180
2026-03-30T22:44:34.336499,140.74521386328672,0.0,239,246,74,159
2026-03-30T22:44:34.386499,140.9461009604065,0.0,227,246,126,139
2026-03-30T22:44:34.436499,141.16961808994586,0.0,217,246,177,122
2026-03-30T22:44:34.486499,141.41520657548628,0.0,208,245,227,107
2026-03-30T22:44:34.536499,141.682252573714,0.0,201,245,276,95
2026-03-30T22:44:34.586499,141.97008860870838,0.0,195,245,322,85
2026-03-30T22:44:34.636499,142.27799524028393,0.0,191,245,8,78
2026-03-30T22:44:34.686499,142.60520286221646,0.0,188,245,51,74
2026-03-30T22:44:34.736499,142.95089362585753,0.0,188,245,92,73
2026-03-30T22:44:34.786499,143.31420348433028,0.0,189,245,132,75
2026-03-30T22:44:34.836499,143.69422435219678,0.0,191,245,169,79
2026-03-30T22:44:34.886499,144.09000637519824,0.0,196,245,204,86
2026-03-30T22:44:34.936499,144.50056030439657,0.0,202,245,237,96
2026-03-30T22:44:34.986499,144.92485996878105,0.0,209,245,267,109
2026-03-30T22:44:35.036499,145.36184484016172,0.0,218,246,295,124
2026-03-30T22:44:35.086499,145.81042268393756,0.0,229,246,320,142
2026-03-30T22:44:35.136499,146.26947228911376,0.0,241,246,343,161
2026-03-30T22:44:35.186499,146.73784627074602,0.0,253,247,3,183
2026-03-30T22:44:35.236499,147.2143739378045,0.0,268,247,20,206
2026-03-30T22:44:35.286499,147.69786421929246,0.0,282,248,35,231
2026-03-30T22:44:35.336499,148.18710864130313,0.0,298,248,46,257
2026-03-30T22:44:35.386499,148.68088434757487,0.0,315,249,55,285
2026-03-30T22:44:35.436499,149.17795715599564,0.0,331,249,62,313
2026-03-30T22:44:35.486499,149.6770846434147,0.0,348,250,65,341
2026-03-30T22:44:35.536499,150.17701925105413,2000.0,6,251,65,10
2026-03-30T22:44:35.586499,150.67651140275586,2000.0,23,252,63,38
2026-03-30T22:44:35.636499,151.17431262827097,2000.0,40,252,57,66
2026-03-30T22:44:35.686499,151.66917868378565,2000.0,56,253,49,94
2026-03-30T22:44:35.736499,152.15987266188225,2000.0,72,254,38,120
2026-03-30T22:44:35.786499,152.64516808316407,2000.0,87,255,25,146
2026-03-30T22:44:35.836499,153.12385196181498,2000.0,102,256,8,170
2026-03-30T22:44:35.886499,153.59472783743192,2000.0,115,257,349,192
2026-03-30T22:44:35.936499,154.05661876555342,2000.0,127,258,327,212
2026-03-30T22:44:35.986499,154.5083702594072,2000.0,138,259,302,230
2026-03-30T22:44:36.036499,154.94885317552627,2000.0,147,260,275,246
2026-03-30T22:44:36.086499,155.37696653601952,2000.0,155,261,246,259
2026-03-30T22:44:36.136499,155.79164028044272,2000.0,162,262,214,270
2026-03-30T22:44:36.186499,156.1918379403928,2000.0,167,264,179,278
